{"_meta":{"source":"data/raw/recycling_facilities_cleaned.xlsx (Recycling Operators)","generated":"2026-04-23T12:44:45.348Z","reeRecyclingFacilitiesEurope":9},"reeEuFacilities":[{"id":"eu-442","rowIndex":442,"operator":"Carester","city":"Lacq","country":"FRANCE","type":"REE recycling","lon":-0.6200209,"lat":43.4127204},{"id":"eu-443","rowIndex":443,"operator":"Heraeus Remloy","city":"Bitterfeld-Wolfen","country":"GERMANY","type":"REE recycling","lon":12.3076334,"lat":51.6425032},{"id":"eu-444","rowIndex":444,"operator":"MagREEsource","city":"Grenoble","country":"FRANCE","type":"REE recycling","lon":5.7357819,"lat":45.1875602},{"id":"eu-445","rowIndex":445,"operator":"Mkango Resources","city":"Puławy","country":"POLAND","type":"REE recycling","lon":21.9853014,"lat":51.4262598},{"id":"eu-446","rowIndex":446,"operator":"Solvay","city":"La Rochelle","country":"FRANCE","type":"REE recycling","lon":-1.1515951,"lat":46.159732},{"id":"eu-447","rowIndex":447,"operator":"Hypromag (DE)","city":"Not specified","country":"GERMANY","type":"REE recycling","lon":7.0356137,"lat":51.4754816},{"id":"eu-448","rowIndex":448,"operator":"Hypromag (UK)","city":"Not specified","country":"UNITED KINGDOM","type":"REE recycling","lon":-0.5409983,"lat":53.2292777},{"id":"eu-449","rowIndex":449,"operator":"REEcover","city":"Not specified","country":"SWITZERLAND","type":"REE recycling","lon":8.7830376,"lat":47.2657293},{"id":"eu-450","rowIndex":450,"operator":"Rocklink","city":"Not specified","country":"GERMANY","type":"REE recycling","lon":7.0356137,"lat":51.4754816}]}
